id flight phase time altitude indicated_airspeed vertical_airspeed tas heading course pitch roll eng_1_rpm vertical_acceleration longitudinal_acceleration lateral_acceleration oat groundspeed latitude longitude nav_1_freq nav_2_freq obs_1 fuel_quantity_left_main fuel_quantity_right_main eng_1_fuel_flow eng_1_oil_press eng_1_oil_temp eng_1_cht_1 eng_1_cht_2 eng_1_cht_3 eng_1_cht_4 eng_1_egt_1 eng_1_egt_2 eng_1_egt_3 eng_1_egt_4 system_1_volts system_2_volts system_1_amps system_2_amps
 37123779 12477 0 0 848.80 0.00 17.20 0.00 354.60 266.20 2.4000 0.4600 1185.50 0.000 0.000 0.000 19.50 0.000 47.9485893 -97.1724243 114.300 108.400 228.2 21.600 19.570 3.010 59.68 144.770 159.10 135.65 159.78 150.00 983.30 977.64 963.53 995.41 27.90 27.90 12.30 0.80
 37123780 12477 0 1 851.20 0.00 20.65 0.00 354.60 266.20 2.4000 0.4600 1185.30 0.000 -0.020 -0.020 19.50 0.000 47.9485855 -97.1724396 114.300 108.400 228.2 21.600 19.570 3.010 59.63 144.760 159.14 135.70 159.84 150.03 984.84 977.91 964.04 995.65 28.00 27.90 12.40 0.80
 37123781 12477 0 2000 854.20 0.00 -4.82 0.00 354.70 266.20 2.3600 0.4500 1185.50 0.000 -0.020 -0.010 19.50 0.000 47.9485855 -97.1724396 114.300 108.400 228.2 21.600 19.570 3.010 59.72 144.650 160.00 136.27 160.55 150.57 998.41 983.72 973.55 998.59 27.90 27.90 12.30 0.80
 37123782 12477 0 3000 853.10 0.00 1.30 0.00 354.70 266.20 2.4100 0.4700 1197.60 0.000 0.000 -0.020 19.50 0.000 47.9485779 -97.1724396 114.300 108.400 228.2 21.600 19.570 3.030 60.02 144.590 160.56 136.67 161.08 150.98 1005.18 986.25 978.06 1001.82 28.00 27.90 12.30 0.80
 37123783 12477 0 4000 853.00 0.00 -6.84 0.00 354.80 266.20 2.4200 0.4700 1217.00 0.000 -0.020 0.000 19.50 0.000 47.9485779 -97.1724396 114.300 108.400 228.2 21.600 19.570 3.020 60.19 144.520 161.06 137.10 161.51 151.34 1011.76 989.68 982.49 1004.88 27.90 27.90 12.30 0.80
 37123784 12477 0 5000 853.40 0.00 -0.43 0.00 354.80 266.20 2.3800 0.4600 1225.20 0.000 0.000 0.000 19.50 0.000 47.9485779 -97.1724396 114.300 108.400 228.2 21.650 19.570 3.010 60.23 144.450 161.45 137.34 161.84 151.55 1017.88 993.79 987.00 1007.98 28.00 27.90 12.10 0.70
 37123785 12477 0 6000 858.80 0.00 -6.75 0.00 354.70 266.20 2.3500 0.4400 1222.50 0.000 -0.010 0.000 19.50 0.000 47.9485741 -97.1724243 114.300 108.400 228.2 21.650 19.620 3.050 60.14 144.380 161.95 137.68 162.26 151.89 1023.97 998.07 992.65 1011.71 28.00 27.90 12.20 0.80
 37123786 12477 0 7000 856.10 0.00 -1.42 0.00 354.80 266.20 2.3500 0.4800 1226.50 0.000 -0.020 -0.010 19.50 0.000 47.9485779 -97.1724396 114.300 108.400 228.2 21.650 19.620 3.000 60.22 144.290 162.58 138.13 162.81 152.33 1028.79 1001.80 998.94 1014.45 28.00 27.90 12.20 0.80
 37123787 12477 0 8000 858.50 0.00 -0.05 0.00 354.80 266.20 2.4400 0.4600 1231.70 0.000 0.040 -0.010 19.50 0.000 47.9485741 -97.1724396 114.300 108.400 228.2 21.650 19.620 2.970 60.40 144.220 163.06 138.55 163.32 152.70 1033.14 1005.08 1003.44 1017.25 28.00 27.90 12.00 0.80
 37123788 12477 0 9000 859.60 0.00 5.51 0.00 354.80 266.20 2.3700 0.4700 1233.30 0.000 0.000 0.000 19.50 0.000 47.9485741 -97.1724396 114.300 108.400 228.2 21.650 19.570 2.950 60.23 144.140 163.66 138.94 163.79 153.07 1039.13 1007.02 1009.45 1020.47 28.00 27.90 12.10 0.70
 37123789 12477 0 10000 860.00 0.00 12.25 0.00 354.70 266.20 2.3700 0.4300 1228.00 0.000 0.010 -0.020 19.50 0.000 47.9485779 -97.1724396 114.300 108.400 228.2 21.650 19.520 2.990 60.22 144.060 164.22 139.33 164.25 153.46 1043.82 1009.11 1013.33 1025.13 28.00 27.90 12.00 0.70
 37123790 12477 0 11000 860.70 0.00 1.03 0.00 354.70 266.20 2.3600 0.3800 1227.10 0.000 0.000 0.000 19.50 0.000 47.9485779 -97.1724243 114.300 108.400 228.2 21.710 19.520 2.970 60.23 143.980 164.76 139.73 164.77 153.82 1047.95 1011.49 1016.27 1028.63 28.00 27.90 12.10 0.80
 37123791 12477 0 12000 853.20 0.00 -0.58 0.00 354.70 266.20 2.3800 0.4900 1220.90 0.000 0.050 0.000 19.50 0.000 47.9485855 -97.1724396 114.300 108.400 228.2 21.650 19.520 2.950 60.10 143.900 165.46 140.29 165.39 154.34 1051.65 1013.80 1018.87 1031.97 28.00 27.90 12.00 0.70
 37123792 12477 0 13000 853.20 0.00 -53.55 0.00 354.70 266.20 2.3600 0.5100 1215.80 0.000 -0.030 -0.010 19.50 0.000 47.9485855 -97.1724396 114.300 108.400 228.2 21.650 19.520 2.940 59.97 143.820 166.05 140.70 165.90 154.75 1055.17 1016.57 1020.89 1034.29 28.00 27.90 12.00 0.70
 37123793 12477 0 14000 853.90 0.00 -33.48 0.00 354.70 266.20 2.4200 0.5800 1205.60 0.000 0.060 0.000 19.50 0.000 47.9485855 -97.1724396 114.300 108.400 228.2 21.650 19.520 2.930 59.86 143.730 166.61 141.12 166.44 155.16 1059.27 1018.65 1023.11 1035.80 27.90 27.90 11.80 0.70
 37123794 12477 0 15000 853.90 0.00 -19.37 0.00 354.70 266.20 2.3300 0.5600 1169.80 0.000 -0.040 0.000 19.50 0.000 47.9485855 -97.1724396 114.300 108.400 228.2 21.650 19.520 2.970 58.84 143.650 167.24 141.57 166.95 155.59 1063.27 1019.57 1024.43 1037.59 27.90 27.90 11.60 0.70
 37123795 12477 0 16000 853.40 0.00 -46.48 0.00 354.70 266.20 2.3700 0.5600 1082.40 0.000 -0.020 0.000 19.50 0.000 47.9485855 -97.1724396 114.300 108.400 228.2 21.710 19.410 2.910 57.72 143.570 167.83 142.02 167.49 156.03 1062.75 1021.14 1022.89 1039.92 27.90 27.90 11.50 0.70
 37123796 12477 0 17000 851.10 0.00 -54.04 0.00 354.70 266.20 2.3800 0.5700 1037.40 0.000 -0.010 0.000 19.50 0.000 47.9485931 -97.1724243 114.300 108.400 228.2 21.710 19.410 2.870 57.14 143.490 168.48 142.49 168.04 156.46 1058.13 1021.08 1020.83 1040.86 27.90 27.90 11.30 0.70
 37123797 12477 0 18000 851.00 0.00 -6.74 0.00 354.70 266.20 2.3500 0.4700 1029.70 0.000 -0.030 -0.010 19.50 0.000 47.9485931 -97.1724243 114.300 108.400 228.2 21.710 19.410 2.880 57.44 143.420 169.09 142.93 168.58 156.90 1051.74 1022.30 1019.60 1039.03 27.90 27.90 11.20 0.70
 37123798 12477 0 19000 851.00 0.00 29.39 0.00 354.80 266.20 2.4200 0.5500 1031.00 0.000 0.000 -0.010 19.50 0.000 47.9485931 -97.1724243 114.300 108.400 228.2 21.710 19.410 2.910 57.33 143.360 169.75 143.52 169.28 157.48 1044.95 1022.40 1017.80 1037.41 27.90 27.90 11.40 0.60
 37123799 12477 0 20000 850.90 0.00 69.88 0.00 354.70 266.20 2.4000 0.5200 1022.80 0.000 0.000 0.000 19.50 0.000 47.9485931 -97.1724396 114.300 108.400 228.2 21.710 19.410 2.850 57.28 143.300 170.48 144.01 169.84 157.95 1038.80 1024.18 1015.27 1035.74 27.90 27.90 11.40 0.70
 37123800 12477 0 21000 851.80 0.00 30.53 0.00 354.70 266.20 2.4200 0.4300 1026.40 0.000 0.010 -0.010 19.50 0.000 47.9485931 -97.1724243 114.300 108.400 228.2 21.760 19.360 2.860 57.32 143.250 171.10 144.47 170.41 158.43 1035.16 1025.25 1014.20 1032.73 27.90 27.90 11.20 0.60
 37123801 12477 0 22000 852.30 0.00 25.62 0.00 354.70 266.20 2.4400 0.4900 1027.00 0.000 0.030 0.000 19.50 0.000 47.9485931 -97.1724243 114.300 108.400 228.2 21.780 19.360 2.830 57.29 143.190 171.65 144.97 170.95 158.91 1031.57 1026.93 1014.34 1031.83 27.90 27.90 11.10 0.60
 37123802 12477 0 23000 854.80 0.00 11.37 0.00 354.70 266.20 2.4400 0.4800 1029.20 0.000 -0.020 0.010 19.50 0.000 47.9485893 -97.1724396 114.300 108.400 228.2 21.780 19.410 2.920 57.37 143.130 172.35 145.43 171.49 159.37 1028.42 1027.14 1014.52 1032.48 27.90 27.90 11.20 0.70
 37123803 12477 0 24000 854.90 0.00 1.86 0.00 354.70 266.20 2.4300 0.4500 1028.20 0.000 0.000 -0.010 19.50 0.000 47.9485893 -97.1724396 114.300 108.400 228.2 21.780 19.410 2.890 57.29 143.070 173.08 146.00 172.13 159.98 1025.16 1026.81 1013.02 1034.22 27.90 27.90 11.10 0.60
 37123804 12477 0 25000 855.00 0.00 0.68 0.00 354.70 266.20 2.4100 0.4700 1031.10 0.000 -0.010 0.000 19.50 0.000 47.9485893 -97.1724396 114.300 108.400 228.2 21.780 19.460 2.900 57.51 143.010 173.71 146.53 172.73 160.43 1022.77 1028.00 1013.30 1034.68 27.90 27.90 11.10 0.60
 37123805 12477 0 26000 855.70 0.00 21.41 0.00 354.70 266.20 2.4800 0.4600 1042.30 0.000 -0.010 0.000 19.50 0.000 47.9485931 -97.1724396 114.300 108.400 228.2 21.760 19.410 2.890 57.57 142.940 173.70 146.41 172.62 160.32 1019.85 1028.98 1012.58 1033.72 27.90 27.90 11.30 0.60
 37123806 12477 0 28000 855.60 0.00 17.06 0.00 354.70 266.20 2.4500 0.4500 1029.50 0.000 -0.010 -0.010 19.50 0.000 47.9485931 -97.1724396 114.300 108.400 228.2 21.760 19.460 2.900 57.36 142.830 174.70 147.16 173.55 161.02 1019.30 1029.60 1015.41 1034.82 27.90 27.90 11.00 0.50
 37123807 12477 0 29000 855.60 0.00 -1.80 0.00 354.70 266.20 2.4500 0.4100 1036.60 0.000 0.000 -0.010 19.50 0.000 47.9485931 -97.1724396 114.300 108.400 228.2 21.760 19.460 2.940 57.55 142.780 175.33 147.62 174.03 161.54 1020.39 1030.58 1016.76 1035.47 27.90 27.90 10.90 0.60
 37123808 12477 0 30000 851.10 0.00 -24.80 0.00 354.80 266.20 2.4200 0.5500 1035.60 0.000 0.020 -0.010 19.50 0.000 47.9485931 -97.1724396 114.300 108.400 228.2 21.760 19.460 2.870 57.48 142.710 175.96 148.15 174.57 162.02 1020.68 1031.40 1018.52 1036.36 27.90 27.90 11.00 0.60
 37123809 12477 0 31000 851.20 0.00 -67.24 0.00 354.70 266.20 2.3800 0.5300 1040.70 0.000 -0.010 -0.020 19.50 0.000 47.9485931 -97.1724396 114.300 108.400 228.2 21.710 19.460 2.910 57.62 142.650 176.64 148.71 175.22 162.61 1020.56 1032.35 1019.27 1038.48 27.90 27.90 10.70 0.50
 37123810 12477 0 32000 851.20 0.00 -52.81 0.00 354.70 266.20 2.4100 0.5400 1046.10 0.000 0.010 -0.020 19.50 0.000 47.9485893 -97.1724396 114.300 108.400 228.2 21.760 19.460 2.880 57.68 142.590 177.30 149.25 175.80 163.12 1021.18 1034.68 1018.80 1039.62 27.90 27.90 10.80 0.60
 37123811 12477 0 33000 850.50 0.00 -50.97 0.00 354.70 266.20 2.4100 0.5200 1043.40 0.000 0.020 -0.010 19.50 0.000 47.9485931 -97.1724396 114.300 108.400 228.2 21.760 19.460 2.920 57.56 142.520 177.91 149.76 176.32 163.64 1022.63 1036.90 1018.95 1040.91 27.90 27.90 10.90 0.60
 37123812 12477 0 34000 848.80 0.00 -49.16 0.00 354.70 266.20 2.4200 0.4900 1043.80 0.000 -0.030 -0.010 19.50 0.000 47.9485893 -97.1724396 114.300 108.400 228.2 21.760 19.460 2.880 57.66 142.460 178.56 150.22 176.89 164.09 1022.58 1037.54 1021.03 1040.75 27.90 27.90 10.50 0.60
 37123813 12477 0 35000 848.80 0.00 -3.57 0.00 354.80 266.20 2.4500 0.5100 1038.50 0.000 -0.010 0.010 19.50 0.000 47.9485893 -97.1724396 114.300 108.400 228.2 21.760 19.460 2.880 57.52 142.400 179.17 150.69 177.40 164.60 1022.73 1036.78 1020.50 1040.47 27.90 27.90 10.60 0.60
 37123814 12477 0 36000 848.60 0.00 22.19 0.00 354.70 266.20 2.4300 0.4400 1048.00 0.000 -0.010 -0.010 19.50 0.000 47.9485893 -97.1724396 114.300 108.400 228.2 21.760 19.520 2.900 57.73 142.330 179.88 151.30 178.01 165.20 1023.59 1036.05 1019.93 1040.28 27.90 27.90 10.60 0.60
 37123815 12477 0 37000 850.00 0.00 21.93 0.00 354.80 266.20 2.4100 0.5200 1049.90 0.000 0.020 0.010 19.50 0.000 47.9485893 -97.1724396 114.300 108.400 228.2 21.710 19.520 2.900 57.73 142.270 180.39 151.69 178.52 165.59 1023.58 1035.61 1018.58 1039.88 27.90 27.90 10.70 0.60
 37123816 12477 0 38000 849.90 0.00 6.90 0.00 354.70 266.20 2.3800 0.4800 1056.60 0.000 -0.050 0.000 19.50 0.000 47.9485893 -97.1724396 114.300 108.400 228.2 21.760 19.520 2.890 57.75 142.190 181.10 152.34 179.08 166.16 1024.88 1034.11 1018.36 1040.98 27.90 27.90 10.50 0.50
 37123817 12477 0 39000 849.20 0.00 0.90 0.00 354.70 266.20 2.4200 0.5100 1052.10 0.000 0.010 -0.010 19.50 0.000 47.9485893 -97.1724396 114.300 108.400 228.2 21.760 19.520 2.890 57.83 142.140 181.68 152.79 179.64 166.68 1026.29 1032.52 1020.56 1042.47 27.90 27.90 10.40 0.50
 37123818 12477 0 40000 849.30 0.00 -2.11 0.00 354.70 266.20 2.4100 0.4800 1043.40 0.000 0.000 -0.010 19.50 0.000 47.9485893 -97.1724396 114.300 108.400 228.2 21.760 19.520 2.860 57.51 142.070 182.30 153.29 180.21 167.19 1026.51 1032.38 1022.06 1046.57 27.90 27.90 10.40 0.50
 37123819 12477 0 41000 849.20 0.00 12.00 0.00 354.70 266.20 2.3800 0.5300 1042.40 0.000 -0.010 -0.010 19.50 0.000 47.9485893 -97.1724396 114.300 108.400 228.2 21.760 19.520 2.890 57.55 142.000 182.84 153.84 180.70 167.66 1027.78 1031.84 1022.88 1048.25 27.90 27.90 10.50 0.50
 37123820 12477 0 42000 851.80 0.00 -8.59 0.00 354.70 266.20 2.3800 0.5200 1038.20 0.000 -0.020 -0.020 19.50 0.000 47.9485893 -97.1724396 114.300 108.400 228.2 21.710 19.520 2.860 57.54 141.940 183.53 154.30 181.23 168.17 1028.19 1031.43 1023.79 1050.14 27.90 27.90 10.40 0.50
 37123821 12477 0 43000 851.10 0.00 -9.53 0.00 354.70 266.20 2.4300 0.4600 1041.00 0.000 -0.010 -0.010 19.50 0.000 47.9485893 -97.1724396 114.300 108.400 228.2 21.710 19.520 2.890 57.60 141.870 184.18 154.95 181.92 168.77 1029.96 1031.04 1024.21 1052.01 27.90 27.90 10.20 0.50
 37123822 12477 0 44000 850.90 0.00 38.69 0.00 354.80 266.20 2.4600 0.5100 1041.90 0.000 0.010 -0.010 19.50 0.000 47.9485893 -97.1724396 114.300 108.400 228.2 21.760 19.520 2.880 57.64 141.810 184.86 155.41 182.41 169.32 1031.03 1030.75 1024.30 1052.23 27.90 27.90 10.00 0.50
 37123823 12477 0 45000 851.40 0.00 46.83 0.00 354.80 266.20 2.4100 0.4700 1044.30 0.000 -0.020 0.000 19.50 0.000 47.9485893 -97.1724396 114.300 108.400 228.2 21.760 19.520 2.890 57.71 141.750 185.44 155.92 182.94 169.78 1031.57 1030.64 1025.73 1051.09 27.90 27.90 10.20 0.50
 37123824 12477 0 46000 851.30 0.00 22.91 0.00 354.80 266.20 2.4100 0.4800 1050.20 0.000 0.030 -0.010 19.50 0.000 47.9485893 -97.1724396 114.300 108.400 228.2 21.760 19.520 2.930 57.79 141.690 186.02 156.44 183.47 170.28 1032.17 1030.94 1028.13 1050.16 27.90 27.90 10.20 0.50
 37123825 12477 0 47000 851.50 0.00 -5.24 0.00 354.80 266.20 2.4200 0.5200 1047.50 0.000 0.000 -0.020 19.50 0.000 47.9485893 -97.1724396 114.300 108.400 228.2 21.760 19.520 2.890 57.64 141.620 186.58 156.92 183.98 170.80 1033.67 1032.51 1028.81 1050.30 27.90 27.90 9.90 0.50
 37123826 12477 0 48000 851.60 0.00 -35.11 0.00 354.80 266.20 2.3800 0.5300 1048.40 0.000 -0.010 -0.010 19.50 0.000 47.9485893 -97.1724396 114.300 108.400 228.2 21.760 19.520 2.860 57.66 141.550 187.16 157.47 184.51 171.29 1035.22 1033.60 1027.65 1051.85 27.90 27.90 10.00 0.50
 37123827 12477 0 49000 850.90 0.00 -59.99 0.00 354.80 266.20 2.3500 0.5100 1043.20 0.000 0.010 -0.010 19.50 0.000 47.9485893 -97.1724396 114.300 108.400 228.2 21.760 19.570 2.850 57.68 141.490 187.80 157.99 185.09 171.77 1036.99 1034.61 1026.39 1053.17 27.90 27.90 9.90 0.50
 37123828 12477 0 50000 851.20 0.00 -24.51 0.00 354.70 266.20 2.3600 0.4800 1046.60 0.000 -0.020 -0.010 19.50 0.000 47.9485893 -97.1724396 114.300 108.400 228.2 21.760 19.570 2.880 57.66 141.430 188.52 158.61 185.65 172.35 1038.41 1036.54 1026.60 1053.45 27.90 27.90 9.90 0.50
 37123829 12477 0 51000 851.80 0.00 20.43 0.00 354.80 266.20 2.3800 0.4700 1051.20 0.000 0.010 0.000 19.50 0.000 47.9485893 -97.1724396 114.300 108.400 228.2 21.760 19.570 2.880 57.72 141.370 189.14 159.06 186.18 172.87 1038.88 1039.20 1026.19 1053.83 28.00 28.00 10.10 0.50
 37123830 12477 0 52000 852.30 0.00 17.45 0.00 354.80 266.20 2.4000 0.5200 1054.30 0.000 0.000 0.010 19.50 0.000 47.9485893 -97.1724396 114.300 108.400 228.2 21.760 19.570 2.890 57.83 141.300 189.72 159.56 186.70 173.37 1041.04 1039.08 1026.62 1055.30 27.90 27.90 10.00 0.50
 37123831 12477 0 53000 852.50 0.00 6.12 0.00 354.70 266.20 2.3800 0.4400 1060.20 0.000 -0.010 -0.010 19.50 0.000 47.9485893 -97.1724396 114.300 108.400 228.2 21.760 19.520 2.880 57.96 141.240 190.27 160.07 187.22 173.88 1042.34 1038.50 1027.00 1056.98 27.90 27.90 9.80 0.50
 37123832 12477 0 54000 852.60 0.00 -50.14 0.00 354.80 266.20 2.3700 0.4700 1053.30 0.000 0.000 -0.010 19.50 0.000 47.9485893 -97.1724396 114.300 108.400 228.2 21.760 19.520 2.920 57.78 141.170 190.89 160.57 187.74 174.35 1041.42 1040.01 1028.32 1058.47 27.90 27.90 9.60 0.50
 37123833 12477 0 55000 852.90 0.00 -29.75 0.00 354.80 266.20 2.4200 0.4900 1051.00 0.000 0.020 -0.010 19.50 0.000 47.9485893 -97.1724396 114.300 108.400 228.2 21.760 19.570 2.950 57.74 141.100 191.48 161.13 188.31 174.85 1042.05 1042.80 1030.33 1060.43 28.00 28.00 9.90 0.50
 37123834 12477 0 56000 852.80 0.00 25.79 0.00 354.80 266.20 2.4000 0.4300 1048.40 0.000 -0.020 0.000 19.50 0.000 47.9485893 -97.1724396 114.300 108.400 228.2 21.760 19.570 2.880 57.66 141.050 192.05 161.60 188.76 175.34 1043.11 1042.65 1031.28 1061.64 27.90 27.90 9.70 0.50
 37123835 12477 0 57000 852.60 0.00 41.06 0.00 354.80 266.20 2.3700 0.4800 1040.70 0.000 -0.030 -0.010 19.50 0.000 47.9485893 -97.1724243 114.300 108.400 228.2 21.760 19.570 2.940 57.60 140.980 192.64 162.09 189.26 175.80 1043.29 1043.86 1031.94 1062.12 27.90 27.90 9.50 0.50
 37123836 12477 0 58000 851.80 0.00 32.47 0.00 354.80 266.20 2.4600 0.4600 1041.60 0.000 0.000 0.000 19.50 0.000 47.9485893 -97.1724396 114.300 108.400 228.2 21.710 19.570 2.860 57.61 140.910 193.22 162.59 189.81 176.28 1042.58 1044.29 1031.21 1061.84 27.90 27.90 9.40 0.40
 37123837 12477 0 59000 852.00 0.00 18.55 0.00 354.80 266.20 2.4100 0.4100 1048.10 0.000 -0.060 0.000 19.50 0.000 47.9485893 -97.1724396 114.300 108.400 228.2 21.650 19.570 2.920 57.73 140.850 193.78 163.08 190.29 176.78 1041.88 1043.92 1031.10 1061.90 27.90 27.90 9.50 0.40
 37123838 12477 0 60000 852.00 0.00 24.18 0.00 354.80 266.20 2.4500 0.4500 1044.80 0.000 0.010 -0.010 19.50 0.000 47.9485893 -97.1724396 114.300 108.400 228.2 21.650 19.520 2.890 57.73 140.780 193.76 163.03 190.23 176.71 1042.27 1043.37 1031.38 1061.32 27.90 27.90 9.40 0.40
 37123839 12477 0 61000 851.90 0.00 32.31 0.00 354.80 266.20 2.3700 0.4300 1043.80 0.000 -0.010 0.000 19.50 0.000 47.9485893 -97.1724396 114.300 108.400 228.2 21.650 19.520 2.920 57.63 140.710 194.10 163.31 190.53 176.96 1042.62 1043.86 1031.15 1060.37 28.00 28.00 9.60 0.50
 37123840 12477 0 62000 852.10 0.00 26.37 0.00 354.80 266.20 2.4200 0.4600 1038.80 0.000 -0.010 0.000 19.50 0.000 47.9485893 -97.1724396 114.300 108.400 228.2 21.710 19.520 2.870 57.46 140.660 194.76 163.82 191.04 177.51 1042.68 1043.68 1030.75 1059.98 27.90 27.90 9.40 0.50
 37123841 12477 0 63000 852.60 0.00 4.92 0.00 354.80 266.20 2.4500 0.4200 1042.30 0.000 0.010 -0.010 19.50 0.000 47.9485893 -97.1724396 114.300 108.400 228.2 21.710 19.520 2.900 57.58 140.590 195.29 164.35 191.56 177.99 1042.75 1043.70 1028.76 1059.74 27.90 27.90 9.20 0.40
 37123842 12477 0 64000 852.90 0.00 27.50 0.00 354.80 266.20 2.4500 0.4400 1044.80 0.000 -0.010 -0.010 19.50 0.000 47.9485893 -97.1724396 114.300 108.400 228.2 21.710 19.520 2.890 57.66 140.530 195.86 164.88 192.08 178.46 1042.89 1043.35 1027.86 1057.92 28.00 28.00 9.30 0.40
 37123843 12477 0 65000 852.90 0.00 -2.81 0.00 354.80 266.20 2.4400 0.4500 1044.00 0.000 -0.030 -0.010 19.50 0.000 47.9485893 -97.1724396 114.300 108.400 228.2 21.650 19.570 2.880 57.53 140.460 196.47 165.36 192.56 178.98 1042.17 1042.22 1028.55 1057.18 28.00 28.00 9.40 0.40
 37123844 12477 0 66000 852.90 0.00 -55.94 0.00 354.80 266.20 2.4200 0.4700 1036.60 0.000 0.000 0.000 19.50 0.000 47.9485893 -97.1724396 114.300 108.400 228.2 21.650 19.520 2.900 57.41 140.400 197.05 165.84 193.04 179.41 1040.84 1041.73 1029.12 1056.30 27.90 27.90 9.30 0.50
 37123845 12477 0 67000 852.80 0.00 -72.99 0.00 354.80 266.20 2.4100 0.4700 1040.80 0.000 0.010 0.000 19.50 0.000 47.9485893 -97.1724396 114.300 108.400 228.2 21.710 19.570 2.850 57.55 140.330 197.62 166.38 193.59 179.91 1040.51 1043.64 1029.94 1056.37 27.90 27.90 9.10 0.40
 37123846 12477 0 68000 852.40 0.00 -14.38 0.00 354.80 266.20 2.4300 0.4800 1043.70 0.000 -0.020 -0.010 19.50 0.000 47.9485893 -97.1724396 114.300 108.400 228.2 21.650 19.520 2.890 57.55 140.270 198.22 166.94 194.17 180.46 1041.38 1046.82 1030.08 1055.38 27.90 27.90 9.10 0.40
 37123847 12477 0 69000 851.90 0.00 -11.16 0.00 354.80 266.20 2.4600 0.4500 1046.60 0.000 0.000 -0.010 19.50 0.000 47.9485893 -97.1724396 114.300 108.400 228.2 21.650 19.520 2.870 57.66 140.200 198.74 167.42 194.61 180.87 1041.60 1049.82 1030.96 1053.67 27.90 27.90 8.90 0.40
 37123848 12477 0 70000 852.20 0.00 -23.36 0.00 354.70 266.20 2.4400 0.4200 1056.70 0.000 -0.010 -0.010 19.50 0.000 47.9485893 -97.1724396 114.300 108.400 228.2 21.710 19.520 2.880 57.89 140.150 199.39 167.94 195.15 181.46 1042.14 1051.77 1031.34 1055.03 28.00 28.00 9.10 0.40
 37123849 12477 0 71000 852.30 0.00 -0.41 0.00 354.80 266.20 2.4300 0.4500 1056.20 0.000 0.000 -0.010 19.50 0.000 47.9485893 -97.1724396 114.300 108.400 228.2 21.650 19.520 2.910 57.84 140.090 199.98 168.45 195.64 181.94 1043.44 1052.12 1032.91 1056.49 28.00 28.00 9.10 0.40
 37123850 12477 0 72000 852.40 0.00 28.16 0.00 354.80 266.20 2.4600 0.4000 1053.00 0.000 0.000 -0.010 19.50 0.000 47.9485893 -97.1724396 114.300 108.400 228.2 21.710 19.570 2.900 57.65 140.030 200.53 168.96 196.15 182.40 1043.64 1052.03 1034.81 1059.09 27.90 27.90 8.90 0.40
 37123851 12477 0 73000 852.50 0.00 28.00 0.00 354.80 266.20 2.4700 0.4100 1048.70 0.000 0.000 0.000 19.50 0.000 47.9485893 -97.1724396 114.300 108.400 228.2 21.650 19.570 2.910 57.58 139.970 201.06 169.44 196.63 182.87 1044.33 1051.60 1037.86 1062.23 27.90 27.90 8.60 0.40
 37123852 12477 0 74000 852.90 0.00 29.73 0.00 354.80 266.20 2.4600 0.3800 1053.90 0.000 0.010 0.000 19.50 0.000 47.9485893 -97.1724396 114.300 108.400 228.2 21.650 19.570 2.880 57.68 139.910 201.66 169.94 197.14 183.36 1044.65 1050.70 1041.64 1062.34 28.00 28.00 8.90 0.40
 37123853 12477 0 75000 853.50 0.00 25.88 0.00 354.80 266.20 2.4500 0.3600 1046.70 0.000 -0.010 0.000 19.50 0.000 47.9485893 -97.1724396 114.300 108.400 228.2 21.650 19.570 2.940 57.64 139.840 202.21 170.46 197.67 183.81 1045.34 1051.20 1042.54 1062.33 28.00 28.00 8.90 0.40
 37123854 12477 0 76000 854.00 0.00 20.25 0.00 354.80 266.20 2.4800 0.3800 1053.10 0.000 0.010 -0.010 19.50 0.000 47.9485893 -97.1724396 114.300 108.400 228.2 21.650 19.520 2.960 57.68 139.790 202.86 171.03 198.21 184.39 1045.53 1051.22 1042.36 1062.39 27.90 27.90 8.70 0.40
 37123855 12477 0 77000 854.10 0.00 15.59 0.00 354.80 266.20 2.4800 0.3800 1055.70 0.000 0.020 0.000 19.50 0.000 47.9485893 -97.1724396 114.300 108.400 228.2 21.650 19.520 2.900 57.83 139.730 203.33 171.43 198.62 184.77 1045.94 1051.35 1043.04 1063.11 27.90 28.00 8.70 0.40
 37123856 12477 0 78000 854.10 0.00 45.31 0.00 354.80 266.20 2.4600 0.4400 1063.70 0.000 -0.040 -0.010 19.50 0.000 47.9485893 -97.1724396 114.300 108.400 228.2 21.650 19.570 2.900 57.92 139.670 203.97 172.00 199.19 185.32 1047.67 1051.40 1044.24 1064.00 28.00 28.00 8.70 0.40
 37123857 12477 0 79000 854.10 0.00 38.24 0.00 354.80 266.20 2.4600 0.3700 1064.00 0.000 0.000 -0.010 19.50 0.000 47.9485893 -97.1724396 114.300 108.400 228.2 21.650 19.570 2.860 57.91 139.610 204.43 172.43 199.57 185.70 1048.88 1052.36 1045.33 1066.26 28.00 28.00 8.60 0.40
 37123858 12477 0 80000 853.90 0.00 -15.25 0.00 354.80 266.20 2.3500 0.4400 1066.60 0.000 -0.040 -0.020 19.50 0.000 47.9485893 -97.1724396 114.300 108.400 228.2 21.650 19.620 2.920 57.90 139.560 205.02 172.97 200.12 186.26 1049.08 1053.96 1045.26 1069.38 28.00 28.00 8.80 0.40
 37123859 12477 0 81000 853.50 0.00 -54.53 0.00 354.90 266.20 2.4300 0.4600 1060.00 0.000 -0.010 0.000 19.50 0.000 47.9485893 -97.1724243 114.300 108.400 228.2 21.710 19.620 2.860 57.74 139.490 205.63 173.54 200.68 186.73 1049.18 1055.76 1045.88 1069.64 28.00 28.00 8.70 0.40
 37123860 12477 0 82000 852.20 0.00 -56.19 0.00 354.80 266.20 2.4100 0.4300 1065.10 0.000 0.010 -0.010 19.50 0.000 47.9485893 -97.1724396 114.300 108.400 228.2 21.650 19.570 2.880 57.96 139.440 206.17 173.97 201.08 187.20 1049.52 1056.95 1046.11 1068.79 27.90 27.90 8.50 0.40
 37123861 12477 0 83000 852.10 0.00 -60.00 0.00 354.80 266.20 2.4100 0.4300 1065.50 0.000 -0.020 0.000 19.50 0.000 47.9485893 -97.1724396 114.300 108.400 228.2 21.650 19.620 2.880 57.84 139.380 206.68 174.43 201.59 187.64 1050.24 1058.99 1044.91 1066.56 28.00 28.00 8.50 0.40
 37123862 12477 0 84000 852.00 0.00 -28.79 0.00 354.80 266.20 2.4500 0.4400 1056.90 0.000 0.010 -0.010 19.80 0.000 47.9485893 -97.1724243 114.300 108.400 228.2 21.650 19.570 2.870 57.65 139.320 207.19 174.92 202.03 188.09 1051.32 1060.50 1044.12 1066.99 28.00 28.00 8.60 0.40
 37123863 12477 0 85000 851.80 0.00 -19.15 0.00 354.80 266.20 2.4000 0.4500 1054.10 0.000 0.000 -0.010 19.80 0.000 47.9485893 -97.1724243 114.300 108.400 228.2 21.650 19.570 2.850 57.62 139.260 207.72 175.41 202.48 188.54 1052.39 1060.28 1042.77 1067.62 28.00 28.00 8.50 0.40
 37123864 12477 0 86000 852.00 0.00 -21.24 0.00 354.80 266.20 2.3500 0.4400 1053.60 0.000 -0.020 0.000 19.80 0.000 47.9485893 -97.1724396 114.300 108.400 228.2 21.710 19.570 2.830 57.73 139.200 208.29 175.87 202.95 189.03 1053.00 1059.58 1041.42 1067.92 28.00 28.00 8.40 0.40
 37123865 12477 0 87000 852.30 0.00 -18.21 0.00 354.80 266.20 2.3800 0.4000 1061.50 0.000 -0.020 0.000 19.80 0.000 47.9485893 -97.1724396 114.300 108.400 228.2 21.650 19.570 2.860 57.87 139.140 208.96 176.50 203.59 189.57 1054.33 1059.37 1041.10 1067.01 28.00 28.00 8.30 0.40
 37123866 12477 0 88000 852.80 0.00 2.80 0.00 354.80 266.20 2.4200 0.4100 1059.80 0.000 -0.020 0.000 19.80 0.000 47.9485893 -97.1724396 114.300 108.400 228.2 21.650 19.570 2.850 57.79 139.080 209.48 176.96 204.01 190.03 1054.63 1059.26 1041.97 1067.70 28.00 28.00 8.20 0.40
 37123867 12477 0 89000 852.90 0.00 -5.11 0.00 354.80 266.20 2.4000 0.4000 1059.10 0.000 0.000 0.000 19.80 0.000 47.9485893 -97.1724396 114.300 108.400 228.2 21.600 19.570 2.910 57.77 139.020 210.00 177.45 204.44 190.51 1054.56 1058.50 1043.37 1069.40 28.00 28.00 8.30 0.40
 37123868 12477 0 90000 853.00 0.00 7.15 0.00 354.80 266.20 2.3700 0.5300 1064.20 0.000 -0.010 -0.010 19.80 0.000 47.9485893 -97.1724396 114.300 108.400 228.2 21.600 19.570 2.880 57.83 138.970 210.46 177.89 204.92 190.94 1053.27 1057.61 1043.75 1070.66 28.00 28.00 8.40 0.40
 37123869 12477 0 91000 853.10 0.00 6.61 0.00 354.80 266.20 2.4100 0.4900 1064.30 0.000 0.000 -0.010 19.80 0.000 47.9485893 -97.1724396 114.300 108.400 228.2 21.650 19.570 2.880 57.82 138.900 211.03 178.36 205.35 191.37 1053.08 1059.28 1043.65 1071.86 28.00 28.00 8.10 0.40
 37123870 12477 0 92000 852.80 0.00 10.73 0.00 354.90 266.20 2.4000 0.4600 1067.40 0.000 -0.010 0.000 19.80 0.000 47.9485893 -97.1724396 114.300 108.400 228.2 21.650 19.520 2.850 57.95 138.840 211.54 178.85 205.85 191.84 1053.20 1060.58 1043.41 1073.04 28.00 28.00 8.00 0.40
 37123871 12477 0 93000 852.30 0.00 1.10 0.00 354.80 266.20 2.3800 0.4000 1065.20 0.000 -0.020 -0.010 19.80 0.000 47.9485893 -97.1724243 114.300 108.400 228.2 21.650 19.570 2.910 57.91 138.780 212.05 179.36 206.33 192.27 1052.85 1060.61 1043.77 1073.97 28.00 28.00 8.10 0.40
 37123872 12477 0 94000 852.30 0.00 22.82 0.00 354.80 266.20 2.4100 0.3600 1053.30 0.000 -0.040 -0.010 19.80 0.000 47.9485893 -97.1724243 114.300 108.400 228.2 21.650 19.520 2.890 57.66 138.730 212.52 179.78 206.75 192.70 1052.55 1060.07 1044.94 1074.03 28.00 28.00 8.20 0.40
 37123873 12477 0 95000 852.30 0.00 26.06 0.00 354.80 266.20 2.4200 0.4700 1059.30 0.000 0.010 -0.020 19.80 0.000 47.9485893 -97.1724243 114.300 108.400 228.2 21.650 19.570 2.860 57.83 138.680 213.05 180.23 207.19 193.15 1052.49 1059.24 1045.39 1075.21 28.00 28.00 8.10 0.40
 37123874 12477 0 96000 852.30 0.00 -4.39 0.00 354.80 266.20 2.4300 0.4800 1062.60 0.000 -0.010 -0.030 19.80 0.000 47.9485893 -97.1724243 114.300 108.400 228.2 21.710 19.570 2.900 57.77 138.620 213.57 180.70 207.62 193.59 1053.34 1059.18 1045.09 1075.53 28.00 28.00 8.00 0.40
 37123875 12477 0 97000 852.40 0.00 20.48 0.00 354.70 266.20 2.4400 0.5100 1066.50 0.000 0.010 -0.020 19.80 0.000 47.9485893 -97.1724243 114.300 108.400 228.2 21.710 19.570 2.830 57.84 138.570 214.05 181.17 208.09 194.01 1054.52 1058.97 1044.94 1076.64 28.00 28.00 7.90 0.40
 37123876 12477 0 98000 852.70 0.00 15.58 0.00 354.80 266.20 2.4000 0.5200 1067.80 0.000 -0.010 0.000 19.80 0.000 47.9485893 -97.1724243 114.300 108.400 228.2 21.710 19.570 2.890 57.85 138.510 214.63 181.71 208.61 194.56 1056.37 1058.83 1045.80 1075.91 28.00 28.00 7.80 0.30
 37123877 12477 0 99000 853.40 0.00 26.04 0.00 354.80 266.20 2.4600 0.4000 1064.30 0.000 -0.010 0.000 19.80 0.000 47.9485893 -97.1724243 114.300 108.400 228.2 21.710 19.520 2.860 57.83 138.450 214.34 181.45 208.27 194.24 1056.17 1059.24 1043.81 1075.05 28.00 28.00 8.20 0.40
 37123878 12477 0 100000 853.20 0.00 68.13 0.00 354.80 266.20 2.5200 0.3800 1059.70 0.000 0.020 0.000 19.80 0.000 47.9485893 -97.1724396 114.300 108.400 228.2 21.650 19.570 2.900 57.76 138.400 214.65 181.71 208.54 194.47 1055.49 1059.78 1042.60 1075.00 28.00 28.00 8.00 0.40
 37123879 12477 0 101000 853.20 0.00 37.83 0.00 354.70 266.20 2.4800 0.3800 1059.90 0.000 0.010 -0.020 19.80 0.000 47.9485893 -97.1724396 114.300 108.400 228.2 21.710 19.570 2.880 57.87 138.350 215.23 182.24 209.07 194.98 1055.26 1060.63 1044.34 1075.32 28.00 28.00 7.80 0.30
 37123880 12477 0 102000 853.40 0.00 31.60 0.00 354.80 266.20 2.4600 0.4000 1068.90 0.000 0.000 -0.010 19.80 0.000 47.9485893 -97.1724396 114.300 108.400 228.2 21.650 19.570 2.860 57.93 138.290 215.77 182.78 209.54 195.45 1053.82 1060.67 1044.82 1075.06 28.00 28.00 7.80 0.30
 37123881 12477 0 103000 853.60 0.00 14.23 0.00 354.80 266.20 2.5300 0.4400 1055.00 0.000 0.020 0.000 19.80 0.000 47.9485893 -97.1724396 114.300 108.400 228.2 21.710 19.570 2.850 57.45 138.240 216.22 183.22 209.96 195.86 1052.96 1058.88 1044.58 1074.82 28.00 28.00 7.70 0.30
 37123882 12477 0 104000 853.30 0.00 -4.22 0.00 354.80 266.20 2.4800 0.3800 1043.00 0.000 0.000 0.000 19.80 0.000 47.9485893 -97.1724243 114.300 108.400 228.2 21.710 19.570 2.910 57.54 138.180 216.71 183.67 210.38 196.29 1053.11 1058.06 1045.56 1075.45 28.00 28.00 7.90 0.40
 37123883 12477 0 105000 852.80 0.00 -0.33 0.00 354.80 266.20 2.4600 0.4500 1047.60 0.000 -0.030 -0.010 19.80 0.000 47.9485893 -97.1724243 114.300 108.400 228.2 21.710 19.570 2.870 57.61 138.130 217.19 184.14 210.84 196.73 1052.74 1058.35 1045.42 1073.12 28.00 28.00 7.80 0.40
 37123884 12477 0 106000 852.90 0.00 3.07 0.00 354.80 266.20 2.5000 0.4400 1050.60 0.000 0.010 -0.010 19.80 0.000 47.9485893 -97.1724243 114.300 108.400 228.2 21.710 19.570 2.820 57.66 138.080 217.65 184.59 211.24 197.11 1053.02 1057.98 1045.58 1071.11 28.00 28.00 7.60 0.30
 37123885 12477 0 107000 852.80 0.00 -1.29 0.00 354.80 266.20 2.5300 0.4300 1045.90 0.000 0.000 -0.010 19.80 0.000 47.9485893 -97.1724243 114.300 108.400 228.2 21.760 19.570 2.870 57.49 138.030 218.16 185.03 211.64 197.57 1053.99 1056.88 1046.33 1070.04 28.00 28.00 7.50 0.30
 37123886 12477 0 108000 852.70 0.00 -14.71 0.00 354.80 266.20 2.4900 0.4500 1049.70 0.000 -0.020 0.000 19.80 0.000 47.9485893 -97.1724243 114.300 108.400 228.2 21.760 19.570 2.870 57.63 137.980 218.72 185.57 212.15 198.08 1054.35 1056.74 1047.28 1070.27 28.00 28.00 7.50 0.30
 37123887 12477 0 109000 852.40 0.00 -17.77 0.00 354.70 266.20 2.4400 0.4200 1053.10 0.000 0.000 -0.010 19.80 0.000 47.9485893 -97.1724243 114.300 108.400 228.2 21.760 19.520 2.870 57.72 137.930 219.13 185.94 212.50 198.41 1054.51 1055.13 1047.65 1069.60 28.00 28.00 7.80 0.30
 37123888 12477 0 110000 852.50 0.00 -19.29 0.00 354.80 266.20 2.4500 0.4500 1059.20 0.000 0.010 0.000 19.80 0.000 47.9485893 -97.1724396 114.300 108.400 228.2 21.760 19.520 2.850 57.80 137.880 219.51 186.31 212.89 198.79 1055.18 1053.90 1047.89 1070.32 28.00 28.00 7.50 0.30
 37123889 12477 0 111000 852.20 0.00 -1.74 0.00 354.80 266.20 2.4300 0.4200 1062.60 0.000 -0.020 0.000 19.80 0.000 47.9485893 -97.1724396 114.300 108.400 228.2 21.760 19.520 2.860 57.80 137.830 220.00 186.77 213.35 199.17 1055.80 1054.90 1048.26 1071.43 28.00 28.00 7.40 0.30
 37123890 12477 0 112000 851.60 0.00 0.01 0.00 354.80 266.20 2.4800 0.4300 1066.90 0.000 0.000 -0.010 19.80 0.000 47.9485893 -97.1724243 114.300 108.400 228.2 21.710 19.520 2.830 57.84 137.790 220.58 187.28 213.80 199.71 1055.34 1055.88 1049.05 1070.87 28.00 28.00 7.40 0.30
 37123891 12477 0 113000 851.30 0.00 -9.41 0.00 354.80 266.20 2.5000 0.4300 1055.70 0.000 0.020 0.000 19.80 0.000 47.9485893 -97.1724243 114.300 108.400 228.2 21.710 19.570 2.900 57.59 137.740 221.06 187.74 214.28 200.13 1054.82 1056.23 1049.15 1070.08 28.00 28.00 7.50 0.30
 37123892 12477 0 114000 851.20 0.00 0.78 0.00 354.80 266.20 2.4300 0.4200 1050.10 0.000 -0.010 -0.010 20.00 0.000 47.9485893 -97.1724243 114.300 108.400 228.2 21.710 19.570 2.860 57.63 137.690 221.51 188.20 214.67 200.54 1054.65 1056.70 1048.34 1070.05 28.00 28.00 7.40 0.30
 37123893 12477 0 115000 851.10 0.00 25.35 0.00 354.80 266.20 2.4500 0.5200 1050.80 0.000 0.030 0.000 20.00 0.000 47.9485893 -97.1724243 114.300 108.400 228.2 21.710 19.570 2.860 57.67 137.640 221.98 188.63 215.08 200.93 1054.35 1056.14 1048.44 1070.24 28.00 28.00 7.40 0.30
 37123894 12477 0 116000 850.80 0.00 13.49 0.00 354.80 266.20 2.4600 0.4700 1049.50 0.000 0.000 -0.010 20.00 0.000 47.9485893 -97.1724243 114.300 108.400 228.2 21.650 19.620 2.870 57.61 137.600 222.37 189.05 215.48 201.33 1055.02 1055.87 1048.63 1069.60 28.00 28.00 7.30 0.30
 37123895 12477 0 117000 844.20 0.00 -7.67 0.00 354.80 266.20 2.4000 0.4300 1052.40 0.000 -0.020 -0.010 20.00 0.000 47.9486008 -97.1724472 114.300 108.400 228.2 21.650 19.620 2.880 57.64 137.550 222.87 189.54 215.93 201.74 1055.56 1056.81 1049.40 1068.21 28.00 28.00 7.20 0.30
 37123896 12477 0 118000 844.80 0.00 -21.58 0.00 354.90 266.20 2.4300 0.5400 1053.00 0.000 -0.010 0.000 20.00 0.000 47.9486008 -97.1724472 114.300 108.400 228.2 21.650 19.620 2.850 57.74 137.500 223.33 189.90 216.28 202.16 1055.24 1056.34 1048.32 1066.63 28.00 28.00 7.40 0.30
 37123897 12477 0 119000 844.80 0.00 -42.22 0.00 354.80 266.20 2.4100 0.4700 1054.70 0.000 -0.020 -0.010 20.00 0.000 47.9486008 -97.1724472 114.300 108.400 228.2 21.650 19.620 2.880 57.67 137.460 223.77 190.36 216.67 202.53 1054.35 1055.27 1046.41 1065.38 28.00 28.00 7.30 0.30
 37123898 12477 0 120000 844.80 0.00 -6.34 0.00 354.80 266.20 2.4400 0.4900 1056.10 0.000 -0.020 -0.010 20.00 0.000 47.9485931 -97.1724472 114.300 108.400 228.2 21.710 19.620 2.850 57.80 137.410 224.17 190.77 217.12 202.92 1054.64 1055.19 1045.82 1064.57 28.00 28.00 7.00 0.30
 37123899 12477 0 121000 844.70 0.00 0.83 0.00 354.80 266.20 2.4500 0.5100 1056.30 0.000 -0.020 0.000 20.00 0.000 47.9485931 -97.1724472 114.300 108.400 228.2 21.710 19.620 2.850 57.63 137.370 224.67 191.21 217.48 203.33 1055.14 1055.99 1044.58 1062.77 28.00 28.00 7.00 0.30
 37123900 12477 0 122000 844.20 0.00 -5.05 0.00 354.80 266.20 2.4100 0.4800 1047.70 0.000 0.000 -0.010 20.00 0.000 47.9485931 -97.1724472 114.300 108.400 228.2 21.760 19.570 2.840 57.43 137.320 225.13 191.62 217.89 203.72 1054.97 1057.36 1044.79 1062.22 28.00 28.00 7.10 0.30
 37123901 12477 0 123000 844.60 0.00 -18.36 0.00 354.80 266.20 2.4200 0.5300 1046.00 0.000 0.010 -0.010 20.00 0.000 47.9486008 -97.1724472 114.300 108.400 228.2 21.760 19.620 2.900 57.59 137.280 225.54 192.10 218.32 204.10 1054.48 1059.07 1044.24 1064.64 28.00 28.00 7.20 0.30
 37123902 12477 0 124000 844.00 0.00 -19.82 0.00 354.80 266.20 2.4500 0.4700 1048.10 0.000 0.030 -0.010 20.00 0.000 47.9486008 -97.1724472 114.300 108.400 228.2 21.710 19.620 2.900 57.60 137.240 226.00 192.47 218.65 204.51 1053.56 1060.23 1042.21 1065.18 28.00 28.00 7.20 0.30
 37123903 12477 0 125000 842.60 0.00 -19.16 0.00 354.80 266.20 2.3700 0.4500 1045.00 0.000 -0.010 -0.010 20.00 0.000 47.9485893 -97.1724548 114.300 108.400 228.2 21.710 19.620 2.890 57.51 137.200 226.46 192.89 219.04 204.90 1053.17 1061.41 1043.20 1064.51 28.00 28.00 6.90 0.30
 37123904 12477 0 126000 842.40 0.00 2.46 0.00 354.80 266.20 2.3500 0.4900 1052.10 0.000 0.000 0.010 20.00 0.000 47.9485893 -97.1724548 114.300 108.400 228.2 21.710 19.670 2.880 57.75 137.160 226.86 193.33 219.44 205.28 1053.52 1063.27 1043.68 1063.36 28.00 28.00 6.90 0.30
 37123905 12477 0 127000 842.00 0.00 35.10 0.00 354.80 266.20 2.4100 0.4400 1060.40 0.000 0.010 -0.010 20.00 0.000 47.9485893 -97.1724548 114.300 108.400 228.2 21.710 19.670 2.850 57.86 137.120 227.32 193.71 219.84 205.66 1053.68 1065.82 1042.24 1062.80 28.00 28.00 6.90 0.30
 37123906 12477 0 128000 843.60 0.00 39.14 0.00 354.80 266.20 2.4500 0.4800 1060.80 0.000 0.030 -0.010 20.00 0.000 47.9485893 -97.1724548 114.300 108.400 228.2 21.710 19.670 2.900 57.75 137.080 227.89 194.25 220.36 206.17 1054.64 1067.87 1042.98 1062.68 28.00 28.00 7.10 0.30
 37123907 12477 0 129000 843.40 0.00 13.42 0.00 354.80 266.20 2.4000 0.4400 1056.90 0.000 -0.010 -0.020 20.00 0.000 47.9485893 -97.1724548 114.300 108.400 228.2 21.710 19.670 2.860 57.70 137.030 228.23 194.62 220.70 206.45 1056.76 1069.59 1044.24 1064.62 28.00 28.00 6.90 0.30
 37123908 12477 0 130000 844.50 0.00 6.10 0.00 354.80 266.20 2.3700 0.4300 1057.10 0.000 -0.010 -0.010 20.00 0.000 47.9485893 -97.1724548 114.300 108.400 228.2 21.710 19.670 2.870 57.68 137.000 228.63 194.96 221.00 206.80 1059.41 1069.18 1044.41 1066.22 28.00 28.00 6.80 0.30
 37123909 12477 0 131000 844.70 0.00 15.52 0.00 354.80 266.20 2.4200 0.4600 1056.00 0.000 0.000 0.000 20.00 0.000 47.9485893 -97.1724548 114.300 108.400 228.2 21.710 19.670 2.900 57.70 136.960 229.20 195.50 221.49 207.30 1062.26 1068.42 1045.64 1067.28 28.00 28.00 6.70 0.30
 37123910 12477 0 132000 841.30 0.00 4.78 0.00 354.80 266.20 2.4300 0.4200 1066.20 0.000 0.010 0.000 20.00 0.000 47.9486046 -97.1724243 114.300 108.400 228.2 21.760 19.670 2.840 57.91 136.920 229.65 195.90 221.89 207.71 1063.24 1068.52 1046.87 1067.19 28.00 28.00 6.80 0.30
 37123911 12477 0 133000 841.50 0.00 16.48 0.00 354.80 266.20 2.3800 0.4000 1070.50 0.000 -0.010 0.000 20.00 0.000 47.9486046 -97.1724243 114.300 108.400 228.2 21.780 19.620 2.840 58.04 136.880 230.08 196.31 222.28 208.07 1062.69 1067.57 1049.48 1068.74 28.00 28.00 6.90 0.30
 37123912 12477 0 134000 841.40 0.00 15.33 0.00 354.90 266.20 2.3700 0.4400 1076.20 0.000 0.000 0.000 20.00 0.000 47.9486008 -97.1724243 114.300 108.400 228.2 21.830 19.670 2.900 58.08 136.840 230.52 196.72 222.65 208.44 1063.11 1066.27 1051.30 1068.64 28.00 28.00 6.80 0.30
 37123913 12477 0 135000 840.90 0.00 1.44 0.00 354.80 266.20 2.4400 0.4000 1071.00 0.000 0.000 -0.010 20.00 0.000 47.9486046 -97.1724243 114.300 108.400 228.2 21.830 19.620 2.830 57.96 136.800 230.98 197.16 223.08 208.81 1064.43 1064.81 1051.43 1067.69 28.00 28.00 6.70 0.30
 37123914 12477 0 136000 840.20 0.00 0.06 0.00 354.80 266.20 2.4300 0.4300 1071.50 0.000 0.010 -0.010 20.00 0.000 47.9486046 -97.1724243 114.300 108.400 228.2 21.830 19.620 2.880 57.97 136.770 231.42 197.50 223.43 209.18 1066.44 1064.44 1053.13 1067.29 28.00 28.00 6.50 0.20
 37123915 12477 0 137000 840.10 0.00 0.00 0.00 354.90 266.20 2.3800 0.4700 1073.10 0.000 -0.020 0.000 20.00 0.000 47.9486046 -97.1724243 114.300 108.400 228.2 21.780 19.620 2.870 57.98 136.730 231.82 197.90 223.80 209.57 1067.53 1064.22 1054.37 1068.25 28.00 28.00 6.80 0.30
 37123916 12477 0 138000 840.00 0.00 9.05 0.00 354.80 266.20 2.4100 0.4300 1066.10 0.000 0.000 -0.010 20.00 0.000 47.9486046 -97.1724243 114.300 108.400 228.2 21.780 19.620 2.870 57.84 136.690 232.25 198.31 224.16 209.95 1067.52 1063.52 1055.74 1070.63 28.00 28.00 6.80 0.30
 37123917 12477 0 139000 840.00 0.00 2.65 0.00 354.80 266.20 2.4300 0.4100 1066.20 0.000 0.000 -0.010 20.00 0.000 47.9486046 -97.1724243 114.300 108.400 228.2 21.830 19.620 2.890 57.82 136.650 232.68 198.70 224.52 210.27 1067.48 1062.39 1057.06 1073.41 28.00 28.00 6.50 0.20
 37123918 12477 0 140000 839.90 0.00 0.10 0.00 354.80 266.20 2.4400 0.4500 1064.50 0.000 0.010 -0.010 20.00 0.000 47.9486046 -97.1724243 114.300 108.400 228.2 21.830 19.620 2.860 57.77 136.610 233.13 199.08 224.87 210.65 1068.14 1061.74 1056.48 1075.48 28.00 28.00 6.50 0.20
 37123919 12477 0 141000 840.90 0.00 10.70 0.00 354.80 266.20 2.4200 0.4400 1066.10 0.000 -0.020 -0.010 20.00 0.000 47.9486046 -97.1724243 114.300 108.400 228.2 21.830 19.620 2.820 57.78 136.570 233.51 199.50 225.29 211.03 1067.10 1064.33 1056.15 1075.58 28.00 28.00 6.50 0.20
 37123920 12477 0 142000 841.80 0.00 9.80 0.00 354.80 266.20 2.4500 0.4100 1067.20 0.000 0.030 0.000 20.00 0.000 47.9486008 -97.1724243 114.300 108.400 228.2 21.780 19.620 2.850 57.85 136.530 233.23 199.17 224.91 210.67 1064.98 1065.31 1055.81 1073.63 28.00 28.00 6.50 0.20
 37123921 12477 0 143000 841.80 0.00 -13.34 0.00 354.80 266.20 2.4300 0.4300 1062.70 0.000 -0.030 0.000 20.00 0.000 47.9486008 -97.1724243 114.300 108.400 228.2 21.780 19.620 2.890 57.81 136.490 234.36 200.17 225.91 211.68 1064.46 1066.18 1057.29 1071.89 28.00 28.00 6.60 0.30
 37123922 12477 0 144000 842.10 0.00 -15.91 0.00 354.80 266.20 2.4500 0.4000 1059.90 0.000 -0.020 -0.010 20.00 0.000 47.9486008 -97.1724243 114.300 108.400 228.2 21.830 19.620 2.890 57.74 136.450 234.20 200.07 225.76 211.52 1062.93 1065.32 1058.41 1070.82 28.00 28.00 6.50 0.30
 37123923 12477 0 145000 842.20 0.00 -10.05 0.00 354.80 266.20 2.4400 0.4200 1059.50 0.000 -0.010 0.000 20.00 0.000 47.9486008 -97.1724243 114.300 108.400 228.2 21.780 19.620 2.830 57.81 136.410 234.38 200.21 225.87 211.57 1061.72 1065.64 1057.37 1070.63 28.00 28.00 6.30 0.20
 37123924 12477 0 146000 842.30 0.00 7.59 0.00 354.80 266.20 2.4400 0.4300 1056.10 0.000 -0.010 -0.010 20.00 0.000 47.9486008 -97.1724243 114.300 108.400 228.2 21.830 19.620 2.840 57.63 136.370 234.86 200.67 226.27 212.03 1061.13 1065.21 1055.77 1069.84 28.00 28.00 6.30 0.20
 37123925 12477 0 147000 841.40 0.00 16.45 0.00 354.80 266.20 2.4800 0.4200 1058.30 0.000 0.010 -0.010 20.00 0.000 47.9486046 -97.1724243 114.300 108.400 228.2 21.830 19.620 2.820 57.72 136.330 235.28 201.11 226.68 212.42 1059.45 1065.91 1054.45 1068.48 28.00 28.00 6.50 0.20
 37123926 12477 0 148000 839.90 0.00 -8.51 0.00 354.80 266.20 2.4500 0.4000 1056.00 0.000 -0.030 -0.010 20.00 0.000 47.9486008 -97.1724243 114.300 108.400 228.2 21.830 19.620 2.850 57.67 136.290 235.65 201.42 226.99 212.73 1058.87 1065.93 1053.62 1067.44 28.00 28.00 6.40 0.30
 37123927 12477 0 149000 839.60 0.00 -10.86 0.00 354.80 266.20 2.4000 0.4000 1059.70 0.000 -0.030 0.000 20.00 0.000 47.9486046 -97.1724243 114.300 108.400 228.2 21.780 19.620 2.890 57.79 136.250 236.09 201.81 227.34 213.11 1060.09 1065.91 1054.54 1066.46 28.00 28.00 6.30 0.20
 37123928 12477 0 150000 839.30 0.00 3.28 0.00 354.80 266.20 2.4100 0.4300 1064.10 0.000 0.020 -0.010 20.00 0.000 47.9486008 -97.1724243 114.300 108.400 228.2 21.830 19.620 2.900 57.87 136.220 236.49 202.19 227.71 213.43 1060.48 1065.21 1054.75 1065.79 28.00 28.00 6.30 0.20
 37123929 12477 0 151000 839.00 0.00 2.59 0.00 354.80 266.20 2.4600 0.4500 1055.00 0.000 0.010 0.000 20.00 0.000 47.9486008 -97.1724243 114.300 108.400 228.2 21.830 19.620 2.860 57.63 136.180 236.86 202.55 228.03 213.78 1059.23 1064.63 1054.33 1065.32 28.00 28.00 6.30 0.20
 37123930 12477 0 152000 838.70 0.00 -12.20 0.00 354.80 266.20 2.4400 0.4400 1051.50 0.000 0.000 -0.020 20.00 0.000 47.9486046 -97.1724243 114.300 108.400 228.2 21.760 19.620 2.800 57.48 136.140 237.24 202.93 228.40 214.12 1059.23 1064.87 1053.81 1066.07 28.00 28.00 6.40 0.30
 37123931 12477 0 153000 839.90 0.00 -17.75 0.00 354.80 266.20 2.4100 0.4700 1053.30 0.000 0.000 -0.010 20.00 0.000 47.9486008 -97.1724243 114.300 108.400 228.2 21.760 19.670 2.860 57.61 136.100 237.66 203.38 228.79 214.46 1060.36 1066.43 1052.50 1066.22 28.00 28.00 6.30 0.20
 37123932 12477 0 154000 840.90 0.00 -26.05 0.00 354.80 266.20 2.4400 0.4200 1050.40 0.000 0.020 0.000 20.00 0.000 47.9486008 -97.1724243 114.300 108.400 228.2 21.780 19.670 2.870 57.53 136.070 238.04 203.69 229.08 214.79 1060.77 1067.02 1051.29 1065.16 28.00 28.00 6.10 0.30
 37123933 12477 0 155000 841.00 0.00 -20.42 0.00 354.80 266.20 2.4300 0.4700 1049.20 0.000 -0.010 0.000 20.00 0.000 47.9486008 -97.1724243 114.300 108.400 228.2 21.760 19.670 2.880 57.60 136.040 238.45 204.08 229.43 215.11 1060.73 1067.65 1051.27 1064.72 28.00 28.00 6.10 0.20
 37123934 12477 0 156000 840.90 0.00 -40.06 0.00 354.80 266.20 2.4100 0.4300 1052.90 0.000 -0.020 0.000 20.00 0.000 47.9486008 -97.1724243 114.300 108.400 228.2 21.780 19.720 2.890 57.65 136.010 238.77 204.45 229.74 215.45 1060.48 1067.92 1050.54 1064.44 28.00 28.00 6.20 0.20
 37123935 12477 0 157000 840.90 0.00 -5.64 0.00 354.80 266.20 2.4200 0.4600 1056.40 0.000 0.000 0.000 20.00 0.000 47.9486008 -97.1724243 114.300 108.400 228.2 21.780 19.720 2.910 57.64 135.970 239.20 204.80 230.10 215.78 1059.76 1066.86 1050.52 1064.29 28.00 28.00 6.20 0.30
 37123936 12477 0 158000 840.80 0.00 19.89 0.00 354.80 266.20 2.4000 0.4500 1057.80 0.000 0.010 0.000 20.00 0.000 47.9486008 -97.1724243 114.300 108.400 228.2 21.780 19.670 2.850 57.75 135.940 239.55 205.15 230.43 216.11 1060.36 1066.86 1050.45 1065.34 28.00 28.00 6.10 0.30
 37123937 12477 0 159000 839.50 0.00 34.80 0.00 354.80 266.20 2.4300 0.4500 1061.40 0.000 0.020 -0.010 20.00 0.000 47.9486008 -97.1724243 114.300 108.400 228.2 21.760 19.670 2.860 57.70 135.910 239.94 205.53 230.81 216.45 1061.23 1066.38 1049.78 1067.12 28.00 28.00 6.00 0.20
 37123938 12477 0 160000 838.60 0.00 24.26 0.00 354.80 266.20 2.4400 0.4300 1061.40 0.000 0.000 -0.020 20.00 0.000 47.9486008 -97.1724243 114.300 108.400 228.2 21.760 19.670 2.850 57.76 135.880 240.46 205.99 231.20 216.86 1062.25 1065.60 1049.53 1067.98 28.00 28.00 6.10 0.20
 37123939 12477 0 161000 838.40 0.00 16.37 0.00 354.80 266.20 2.4200 0.4400 1059.30 0.000 -0.030 -0.010 20.00 0.000 47.9486008 -97.1724243 114.300 108.400 228.2 21.760 19.670 2.860 57.67 135.850 240.84 206.37 231.55 217.24 1062.74 1065.73 1049.86 1069.33 28.00 28.00 5.90 0.20
 37123940 12477 0 162000 838.30 0.00 19.36 0.00 354.80 266.20 2.4500 0.4500 1057.90 0.000 0.020 -0.010 20.00 0.000 47.9486008 -97.1724243 114.300 108.400 228.2 21.760 19.670 2.870 57.61 135.820 241.23 206.72 231.89 217.53 1062.34 1065.74 1049.35 1070.17 28.00 28.00 6.10 0.20
 37123941 12477 0 163000 842.40 0.00 13.90 0.00 354.80 266.20 2.4300 0.4600 1063.20 0.000 0.010 0.000 20.00 0.000 47.9485931 -97.1724243 114.300 108.400 228.2 21.760 19.720 2.880 57.81 135.790 241.58 207.08 232.23 217.87 1060.53 1067.17 1049.12 1070.01 28.00 28.00 6.00 0.20
 37123942 12477 0 164000 842.50 0.00 8.41 0.00 354.80 266.20 2.4500 0.4200 1062.50 0.000 0.030 0.000 20.00 0.000 47.9486008 -97.1724243 114.300 108.400 228.2 21.760 19.720 2.850 57.74 135.760 241.83 207.35 232.46 218.07 1059.46 1068.13 1047.84 1069.12 28.00 28.00 5.70 0.20
 37123943 12477 0 165000 843.10 0.00 -12.26 0.00 354.80 266.20 2.4600 0.4300 1056.00 0.000 0.010 0.000 20.00 0.000 47.9485931 -97.1724243 114.300 108.400 228.2 21.760 19.670 2.860 57.67 135.730 242.21 207.68 232.78 218.38 1059.46 1069.81 1047.40 1068.53 28.00 28.00 5.90 0.20
 37123944 12477 0 166000 843.80 0.00 -6.21 0.00 354.80 266.20 2.4500 0.4100 1057.40 0.000 0.020 0.000 20.00 0.000 47.9485931 -97.1724243 114.300 108.400 228.2 21.760 19.720 2.900 57.70 135.700 242.68 208.14 233.24 218.79 1059.37 1071.75 1049.33 1068.36 28.00 28.00 5.90 0.20
 37123945 12477 0 167000 844.00 0.00 -1.95 0.00 354.70 266.20 2.4200 0.4600 1056.20 0.000 0.000 -0.020 20.00 0.000 47.9485931 -97.1724243 114.300 108.400 228.2 21.710 19.720 2.840 57.64 135.670 243.10 208.52 233.54 219.13 1059.45 1072.21 1051.36 1068.29 28.00 28.00 5.80 0.20
 37123946 12477 0 168000 844.00 0.00 -18.90 0.00 354.70 266.20 2.4500 0.4300 1059.00 0.000 0.010 -0.030 20.00 0.000 47.9485931 -97.1724243 114.300 108.400 228.2 21.710 19.720 2.830 57.62 135.650 243.47 208.81 233.86 219.44 1059.62 1071.30 1051.85 1068.41 28.00 28.00 5.90 0.20
 37123947 12477 0 169000 844.10 0.00 -1.43 0.00 354.80 266.20 2.4500 0.4800 1059.20 0.000 0.010 -0.010 20.00 0.000 47.9485931 -97.1724243 114.300 108.400 228.2 21.760 19.670 2.900 57.65 135.620 243.82 209.16 234.23 219.74 1059.20 1068.85 1052.96 1068.37 28.00 28.00 5.80 0.20
 37123948 12477 0 170000 844.20 0.00 14.93 0.00 354.80 266.20 2.4300 0.4500 1059.20 0.000 -0.020 0.000 20.00 0.000 47.9485931 -97.1724243 114.300 108.400 228.2 21.760 19.670 2.820 57.67 135.590 244.09 209.42 234.44 219.93 1059.99 1066.43 1053.76 1068.92 28.00 28.00 5.70 0.20
 37123949 12477 0 171000 843.00 0.00 10.02 0.00 354.70 266.20 2.4100 0.4100 1055.00 0.000 0.000 -0.020 20.00 0.000 47.9485931 -97.1724243 114.300 108.400 228.2 21.760 19.670 2.810 57.70 135.570 244.54 209.81 234.82 220.31 1062.20 1066.01 1055.07 1070.05 28.00 28.00 5.90 0.20
 37123950 12477 0 172000 842.30 0.00 -32.99 0.00 354.80 266.20 2.3800 0.4900 1056.50 0.000 0.000 0.000 20.00 0.000 47.9486008 -97.1724243 114.300 108.400 228.2 21.760 19.670 2.830 57.64 135.540 244.90 210.20 235.17 220.67 1062.98 1066.28 1056.01 1070.56 28.00 28.00 5.80 0.20
 37123951 12477 0 173000 842.20 0.00 -40.15 0.00 354.80 266.20 2.4300 0.4400 1063.40 0.000 0.010 -0.010 20.00 0.000 47.9486008 -97.1724243 114.300 108.400 228.0 21.710 19.670 2.820 57.78 135.510 245.31 210.49 235.49 220.97 1062.79 1066.25 1055.37 1071.03 28.00 28.00 5.60 0.20
 37123952 12477 0 174000 842.20 0.00 -32.20 0.00 354.80 266.20 2.4200 0.4200 1063.30 0.000 0.010 0.000 20.00 0.000 47.9486008 -97.1724243 114.300 108.400 228.0 21.650 19.670 2.840 57.72 135.480 245.67 210.88 235.83 221.25 1062.57 1067.79 1056.49 1070.76 28.00 28.00 5.70 0.20
 37123953 12477 0 175000 842.20 0.00 -12.80 0.00 354.70 266.20 2.3800 0.4100 1066.70 0.000 -0.010 0.000 20.00 0.000 47.9486008 -97.1724243 114.300 108.400 228.0 21.650 19.670 2.850 57.77 135.460 246.00 211.18 236.12 221.54 1064.12 1068.28 1058.21 1070.54 28.00 28.00 5.70 0.20
 37123954 12477 0 176000 842.30 0.00 19.32 0.00 354.80 266.20 2.4100 0.4700 1064.10 0.000 0.010 0.000 20.00 0.000 47.9486008 -97.1724243 114.300 108.400 200.0 21.650 19.620 2.870 57.80 135.440 246.40 211.50 236.45 221.85 1064.58 1068.96 1059.14 1070.92 28.00 28.00 5.60 0.20
 37123955 12477 0 177000 843.60 0.00 48.72 0.00 354.80 266.20 2.4500 0.4800 1069.00 0.000 0.010 -0.010 20.00 0.000 47.9486008 -97.1724243 114.300 108.400 200.0 21.600 19.620 2.880 57.94 135.410 246.73 211.83 236.75 222.15 1064.36 1068.54 1059.42 1072.36 28.00 28.00 5.70 0.20
 37123956 12477 0 178000 844.00 0.00 -3.93 0.00 354.80 266.20 2.4400 0.4300 1075.10 0.000 -0.010 -0.020 20.00 0.000 47.9486008 -97.1724243 114.300 108.400 200.0 21.600 19.620 2.850 58.02 135.380 247.12 212.16 237.09 222.44 1064.92 1067.42 1059.41 1073.03 28.00 28.00 5.60 0.20
 37123957 12477 0 179000 844.20 0.00 15.30 0.00 354.80 266.20 2.4300 0.5100 1070.40 0.000 0.010 -0.020 20.00 0.000 47.9486008 -97.1724243 114.300 108.400 200.0 21.650 19.620 2.890 57.86 135.360 247.46 212.46 237.39 222.72 1065.19 1066.53 1059.20 1073.14 28.00 28.00 5.50 0.20
 37123958 12477 0 180000 844.50 0.00 37.34 0.00 354.80 266.20 2.4000 0.5400 1067.40 0.000 -0.010 -0.010 20.00 0.000 47.9486008 -97.1724243 114.300 108.400 200.0 21.650 19.670 2.860 57.86 135.330 247.83 212.83 237.73 223.01 1066.13 1067.42 1060.62 1074.63 28.00 28.00 5.60 0.20
 37123959 12477 0 181000 844.70 0.00 -0.15 0.00 354.80 266.20 2.4700 0.4800 1066.40 0.000 0.020 -0.020 20.00 0.000 47.9485931 -97.1724243 114.300 108.400 200.0 21.650 19.620 2.850 57.81 135.300 248.15 213.12 238.04 223.33 1067.51 1067.35 1061.71 1075.72 28.00 28.00 5.60 0.20
 37123960 12477 0 182000 844.90 0.00 -11.04 0.00 354.80 266.20 2.4100 0.5100 1061.90 0.000 -0.060 -0.010 20.00 0.000 47.9485931 -97.1724243 114.300 108.400 200.0 21.650 19.620 2.860 57.59 135.280 248.51 213.46 238.32 223.61 1067.93 1068.25 1061.98 1075.18 28.00 28.00 5.50 0.20
 37123961 12477 0 183000 843.60 0.00 -14.66 0.00 354.80 266.20 2.4500 0.5400 1054.60 0.000 0.020 0.000 20.00 0.000 47.9486008 -97.1724243 114.300 108.400 200.0 21.650 19.620 2.880 57.53 135.250 248.86 213.79 238.62 223.88 1066.05 1070.39 1062.53 1074.28 28.00 28.00 5.50 0.20
 37123962 12477 0 184000 843.20 0.00 -21.78 0.00 354.80 266.20 2.4300 0.4500 1054.90 0.000 0.000 0.000 20.00 0.000 47.9486008 -97.1724243 114.300 108.400 200.0 21.650 19.620 2.830 57.53 135.230 249.18 214.08 238.95 224.17 1064.95 1070.34 1062.40 1074.91 28.00 28.00 5.50 0.20
 37123963 12477 0 185000 843.10 0.00 -25.40 0.00 354.80 266.20 2.4200 0.5100 1049.40 0.000 0.040 0.010 20.00 0.000 47.9486008 -97.1724243 114.300 108.400 200.0 21.650 19.670 2.890 57.48 135.200 249.55 214.43 239.26 224.44 1063.57 1069.52 1061.90 1074.72 28.00 28.00 5.50 0.20
 37123964 12477 0 186000 843.00 0.00 4.04 0.00 354.80 266.20 2.4500 0.5100 1049.60 0.000 0.000 0.000 20.00 0.000 47.9486008 -97.1724243 114.300 108.400 200.0 21.650 19.670 2.850 57.45 135.180 249.87 214.75 239.59 224.77 1062.50 1070.52 1060.22 1073.54 28.00 28.00 5.50 0.20
 37123965 12477 0 187000 843.00 0.00 -2.35 0.00 354.80 266.20 2.4200 0.4300 1043.50 0.000 -0.010 -0.010 20.00 0.000 47.9485931 -97.1724243 114.300 108.400 181.7 21.710 19.620 2.870 57.40 135.150 250.21 215.03 239.85 225.00 1062.30 1070.92 1059.73 1071.47 28.00 28.00 5.50 0.20
 37123966 12477 0 188000 843.00 0.00 -1.84 0.00 354.80 266.20 2.3800 0.5100 1048.20 0.000 -0.020 0.000 20.00 0.000 47.9486008 -97.1724243 114.300 108.400 228.0 21.710 19.670 2.870 57.57 135.130 250.54 215.35 240.17 225.27 1062.30 1071.25 1058.33 1070.93 28.00 28.00 5.30 0.20
 37123967 12477 0 189000 844.50 0.00 11.72 0.00 354.70 266.20 2.3800 0.4500 1053.40 0.000 -0.010 -0.010 20.00 0.000 47.9486008 -97.1724243 114.300 108.400 228.0 21.710 19.670 2.880 57.61 135.100 250.87 215.65 240.48 225.53 1061.52 1070.79 1056.28 1069.09 28.00 28.00 5.40 0.20
 37123968 12477 0 190000 844.80 0.00 5.92 0.00 354.80 266.20 2.4200 0.4700 1054.20 0.000 0.000 -0.010 20.00 0.000 47.9485931 -97.1724243 114.300 108.400 228.0 21.650 19.720 2.860 57.56 135.080 251.22 215.94 240.77 225.83 1061.93 1071.93 1054.95 1067.64 28.00 28.00 5.40 0.20
 37123969 12477 0 191000 845.00 0.00 -10.85 0.00 354.80 266.20 2.4300 0.5100 1055.80 0.000 0.000 0.000 20.20 0.000 47.9485931 -97.1724243 114.300 108.400 228.0 21.650 19.720 2.910 57.56 135.060 251.50 216.26 241.05 226.09 1062.34 1073.36 1054.16 1066.79 28.00 28.00 5.30 0.20
 37123970 12477 0 192000 845.10 0.00 -6.74 0.00 354.80 266.20 2.4100 0.4900 1061.00 0.000 -0.010 -0.010 20.20 0.000 47.9485931 -97.1724243 114.300 108.400 228.0 21.710 19.720 2.860 57.57 135.040 251.86 216.54 241.39 226.39 1062.59 1072.81 1054.33 1066.99 28.00 28.00 5.30 0.20
 37123971 12477 0 193000 845.20 0.00 -13.35 0.00 354.80 266.20 2.4100 0.4700 1062.90 0.000 -0.010 -0.010 20.20 0.000 47.9485931 -97.1724243 114.300 108.400 228.0 21.710 19.720 2.890 57.79 135.020 252.22 216.85 241.69 226.63 1064.47 1072.31 1057.01 1067.97 28.00 28.00 5.30 0.20
 37123972 12477 0 194000 845.30 0.00 3.70 0.00 354.80 266.20 2.3800 0.4800 1076.10 0.000 -0.030 0.010 20.20 0.000 47.9485931 -97.1724243 114.300 108.400 228.0 21.650 19.670 2.870 58.00 135.000 252.51 217.14 241.96 226.87 1065.69 1073.16 1058.25 1069.03 28.00 28.00 5.30 0.20
 37123973 12477 0 195000 843.90 0.00 27.37 0.00 354.80 266.20 2.4100 0.4400 1074.00 0.000 -0.030 0.010 20.20 0.000 47.9485931 -97.1724243 114.300 108.400 228.0 21.650 19.670 2.880 57.87 134.980 252.88 217.42 242.28 227.15 1066.59 1074.07 1058.46 1070.68 28.00 28.00 5.20 0.20
 37123974 12477 0 196000 842.90 0.00 16.85 0.00 354.80 266.20 2.4300 0.4500 1070.50 0.000 0.030 0.010 20.20 0.000 47.9485931 -97.1724243 114.300 108.400 228.0 21.710 19.720 2.840 57.89 134.960 253.19 217.72 242.59 227.41 1066.72 1074.90 1059.09 1073.60 28.00 28.00 5.30 0.20
 37123975 12477 0 197000 842.80 0.00 -14.45 0.00 354.80 266.20 2.4200 0.4500 1067.90 0.000 -0.010 -0.010 20.20 0.000 47.9485931 -97.1724243 114.300 108.400 228.0 21.710 19.720 2.880 57.78 134.940 253.52 218.00 242.84 227.67 1067.65 1074.10 1059.99 1075.65 28.00 28.00 5.20 0.20
 37123976 12477 0 198000 842.60 0.00 -1.00 0.00 354.80 266.20 2.4300 0.5400 1061.20 0.000 0.000 -0.010 20.20 0.000 47.9485931 -97.1724243 114.300 108.400 228.0 21.710 19.670 2.880 57.67 134.920 253.87 218.29 243.16 227.95 1068.63 1072.82 1059.71 1075.39 28.00 28.00 5.10 0.10
 37123977 12477 0 199000 842.30 0.00 -9.07 0.00 354.80 266.20 2.4100 0.4700 1055.90 0.000 0.000 0.000 20.20 0.000 47.9485931 -97.1724243 114.300 108.400 228.0 21.650 19.670 2.900 57.57 134.900 254.18 218.58 243.46 228.24 1068.38 1070.84 1059.98 1076.22 28.00 28.00 5.20 0.20
 37123978 12477 0 200000 838.70 0.00 -8.59 0.00 354.80 266.20 2.4100 0.4800 1062.00 0.000 -0.010 -0.010 20.20 0.000 47.9486008 -97.1724243 114.300 108.400 228.0 21.710 19.670 2.850 57.66 134.880 254.52 218.85 243.73 228.48 1066.83 1070.41 1059.85 1076.61 28.00 28.00 5.10 0.20
 37123979 12477 0 201000 840.00 0.00 12.50 0.00 354.80 266.20 2.3800 0.4500 1068.70 0.000 -0.010 0.000 20.20 0.000 47.9486008 -97.1724243 114.300 108.400 228.0 21.710 19.670 2.810 57.86 134.850 254.83 219.13 244.00 228.70 1066.32 1068.75 1060.05 1075.41 28.00 28.00 5.10 0.20
 37123980 12477 0 202000 840.20 0.00 1.23 0.00 354.80 266.20 2.4300 0.4500 1067.40 0.000 0.010 -0.010 20.20 0.000 47.9486008 -97.1724243 114.300 108.400 228.0 21.710 19.670 2.830 57.69 134.830 255.13 219.40 244.29 228.96 1065.76 1067.69 1060.06 1073.86 28.00 28.00 5.20 0.20
 37123981 12477 0 203000 840.40 0.00 7.48 0.00 354.80 266.20 2.4200 0.4800 1062.20 0.000 -0.030 0.000 20.20 0.000 47.9486008 -97.1724243 114.300 108.400 228.0 21.650 19.670 2.870 57.73 134.810 255.48 219.69 244.61 229.23 1066.65 1067.98 1060.51 1072.59 28.00 28.00 5.20 0.20
 37123982 12477 0 204000 840.50 0.00 -2.29 0.00 354.80 266.20 2.4400 0.4900 1058.90 0.000 0.000 -0.020 20.20 0.000 47.9486008 -97.1724243 114.300 108.400 228.0 21.650 19.670 2.910 57.63 134.790 255.18 219.38 244.25 228.88 1066.78 1067.67 1060.17 1069.70 28.00 28.00 5.00 0.20
 37123983 12477 0 205000 840.50 0.00 9.79 0.00 354.90 266.20 2.4400 0.5300 1057.40 0.000 0.000 0.010 20.20 0.000 47.9486008 -97.1724243 114.300 108.400 228.0 21.650 19.670 2.830 57.62 134.770 255.35 219.56 244.44 229.04 1068.03 1068.11 1059.34 1067.83 28.00 28.00 5.10 0.20
 37123984 12477 0 206000 840.10 0.00 23.30 0.00 354.80 266.20 2.4700 0.5200 1056.30 0.000 -0.010 0.000 20.20 0.000 47.9486008 -97.1724243 114.300 108.400 228.0 21.650 19.670 2.830 57.51 134.750 255.55 219.68 244.61 229.12 1066.98 1068.03 1057.57 1067.09 28.00 28.00 5.10 0.20
 37123985 12477 0 207000 838.70 0.00 -15.81 0.00 354.80 266.20 2.4500 0.4600 1058.70 0.000 0.010 -0.010 20.20 0.000 47.9486008 -97.1724243 114.300 108.400 228.0 21.650 19.670 2.840 57.57 134.730 255.92 220.04 244.97 229.46 1066.36 1068.48 1056.02 1067.23 28.00 28.00 4.90 0.20
 37123986 12477 0 208000 838.80 0.00 -19.03 0.00 354.80 266.20 2.4300 0.4800 1055.90 0.000 0.020 -0.010 20.20 0.000 47.9486008 -97.1724243 114.300 108.400 228.0 21.710 19.620 2.820 57.53 134.710 256.24 220.34 245.26 229.73 1065.59 1068.59 1055.14 1066.92 28.00 28.00 5.10 0.20
 37123987 12477 0 209000 838.70 0.00 -11.13 0.00 354.80 266.20 2.4300 0.5500 1052.40 0.000 0.010 -0.010 20.20 0.000 47.9486008 -97.1724243 114.300 108.400 228.0 21.710 19.670 2.920 57.59 134.690 256.54 220.62 245.53 229.99 1065.75 1069.32 1054.79 1066.88 28.00 28.00 5.10 0.20
 37123988 12477 0 210000 838.70 0.00 9.87 0.00 354.80 266.20 2.4400 0.5200 1054.30 0.000 0.000 -0.020 20.20 0.000 47.9486008 -97.1724243 114.300 108.400 228.0 21.760 19.620 2.900 57.59 134.670 256.82 220.89 245.80 230.23 1065.81 1070.19 1054.82 1065.69 28.00 28.00 4.90 0.20
 37123989 12477 0 211000 838.60 0.00 -54.01 0.00 354.80 266.20 2.4900 0.5600 1055.10 0.000 0.010 -0.010 20.20 0.000 47.9486008 -97.1724243 114.300 108.400 228.0 21.760 19.670 2.880 57.48 134.650 257.01 221.08 245.97 230.38 1065.79 1070.22 1054.56 1063.98 28.00 28.00 5.00 0.20
 37123990 12477 0 212000 839.00 0.00 -57.52 0.00 354.80 266.20 2.4800 0.5600 1057.50 0.000 0.000 -0.010 20.20 0.000 47.9486008 -97.1724243 114.300 108.400 228.0 21.760 19.670 2.810 57.49 134.630 257.29 221.29 246.28 230.56 1065.17 1070.55 1054.11 1062.86 28.00 28.00 4.90 0.20
 37123991 12477 0 213000 840.70 0.00 -43.86 0.00 354.80 266.20 2.4600 0.5400 1057.00 0.000 0.010 0.000 20.20 0.000 47.9486008 -97.1724243 114.300 108.400 228.0 21.780 19.620 2.860 57.65 134.610 257.69 221.67 246.60 230.91 1065.77 1071.80 1053.76 1062.06 28.00 28.00 4.90 0.20
 37123992 12477 0 214000 840.80 0.00 -2.10 0.00 354.80 266.20 2.4300 0.5200 1071.40 0.000 0.000 0.010 20.20 0.000 47.9486046 -97.1724243 114.300 108.400 228.0 21.780 19.620 2.870 58.01 134.600 257.98 221.96 246.88 231.17 1067.32 1072.64 1053.00 1062.36 28.00 28.00 4.90 0.20
 37123993 12477 0 215000 841.00 0.00 34.96 0.00 354.80 266.20 2.4200 0.4800 1074.60 0.000 -0.010 0.000 20.20 0.000 47.9486046 -97.1724243 114.300 108.400 228.0 21.780 19.670 2.900 57.91 134.580 258.27 222.22 247.16 231.39 1067.53 1074.17 1052.93 1062.46 28.00 28.00 5.00 0.20
